{"markets":[{"description":"Wednesdays 1-5; June 9 - Sep 10","start":1403546400000,"startFormatted":"01:00 PM","endFormatted":"05:00 PM","end":1403560800000,"location":{"name":"1901 West Galena Boulevard, Aurora, IL","lat":41.764407999999996,"lng":-88.36412},"name":"Aurora Farmers Market - West"},{"description":"July 9th through October 8; 9am - 1pm","start":1403532000000,"startFormatted":"09:00 AM","endFormatted":"01:00 PM","end":1403546400000,"location":{"name":"555 East 51st Street, Chicago, IL","lat":41.802161999999996,"lng":-87.612252},"name":"Washington Park Farmers Market"},{"description":"Mondays 4-8; from June through October","start":1403557200000,"startFormatted":"04:00 PM","endFormatted":"08:00 PM","end":1403571600000,"location":{"name":"222 East 9th Street, Lockport, IL","lat":41.588809999999995,"lng":-88.05532099999999},"name":"Lockport Farmers Market"},{"description":"Every Monday from June 2nd to October 13 from 7a to 1p","start":1403524800000,"startFormatted":"07:00 AM","endFormatted":"01:00 PM","end":1403546400000,"location":{"name":"30 East Chicago Avenue, Hinsdale, IL","lat":41.803664,"lng":-87.92866},"name":"Hinsdale Farmers Market"},{"description":"Every Monday from 3-7 until October 27th","start":1403553600000,"startFormatted":"03:00 PM","endFormatted":"07:00 PM","end":1403568000000,"url":"http:\/\/www.beverlyfarmersmarket.org\/","location":{"name":"2820 East 98th Street, Chicago, IL","lat":41.717279999999995,"lng":-87.55570999999999},"name":"Beverly Farmer's Market"}]}