{"markets":[{"description":"Wednesdays July 9th - Oct 29th; 8am - 1pm","start":1412168400000,"startFormatted":"08:00 AM","endFormatted":"01:00 PM","end":1412186400000,"location":{"name":"7601 S Cicero Ave, Chicago, IL","lat":41.75732,"lng":-87.741631},"name":"Ford City Mall"},{"description":"Wednesdays June 11 to October 8; 3 - 7","start":1412193600000,"startFormatted":"03:00 PM","endFormatted":"07:00 PM","end":1412208000000,"url":"http:\/\/www.merrillsmarkets.com\/","location":{"name":"7100 Clarendon Hills Rd, Darien, IL","lat":41.759326,"lng":-87.954658},"name":"Darien Farmers Market"},{"description":"https:\/\/www.facebook.com\/Riverside.Farmers.Mkt<br\/>Wednesdays 2:30-7pm; June 4th through Oct 15","start":1412191800000,"startFormatted":"02:30 PM","endFormatted":"07:00 PM","end":1412208000000,"location":{"name":"1 Burling Rd, Riverside, IL","lat":41.826633,"lng":-87.818944},"name":"Riverside Farmers Market"},{"description":"Wednesdays 7-1; May 7th through October","start":1412164800000,"startFormatted":"07:00 AM","endFormatted":"01:00 PM","end":1412186400000,"url":"http:\/\/www.palosheights.org\/government\/brads\/testdept\/FarmersMarket.asp","location":{"name":"122nd and Harlem Avenue, Palos Heights, IL","lat":41.669837,"lng":-87.796585},"name":"Palos Heights Farmers Market"},{"description":"Every Wednesday from 7:00am to 1:00pm from June 4th through October 29th, 2014","start":1412164800000,"startFormatted":"07:00 AM","endFormatted":"01:00 PM","end":1412186400000,"url":"http:\/\/www.raviniafarmersmarket.org\/","location":{"name":"Dean Avenue and Roger Williams Avenue, Ravinia, IL","lat":42.165465,"lng":-87.781269},"name":"Ravinia Farmers Market"},{"description":"Wednesdays June 4th through October 8; 3:30pm - 7:00 pm","start":1412195400000,"startFormatted":"03:30 PM","endFormatted":"07:00 PM","end":1412208000000,"url":"http:\/\/cityofevanston.org\/evanston-life\/farmers-market\/","location":{"name":"Ridge Avenue and South Blvd, Evanston, IL","lat":42.02776,"lng":-87.685547},"name":"Ridgeville Market"},{"description":"Wednesdays June 4th through October 29th; 7am - 1pm","start":1412164800000,"startFormatted":"07:00 AM","endFormatted":"01:00 PM","end":1412186400000,"url":"http:\/\/yorkandvallette.com\/yava\/FarmersMarket.aspx","location":{"name":"York and Vallette, Elmhurst, IL","lat":41.883572,"lng":-87.94001},"name":"Elmhurst Farmers Market"},{"description":"June 18th through October 8th; 7am - 1pm","start":1412164800000,"startFormatted":"07:00 AM","endFormatted":"01:00 PM","end":1412186400000,"url":"http:\/\/www.northbrookfarmersmarket.org\/","location":{"name":"Cherry and Meadow, Northbrook, IL","lat":42.131358999999996,"lng":-87.828659},"name":"Northbrook Farmers Market"},{"description":"June 25 – October 29; 2pm-7pm","start":1412190000000,"startFormatted":"02:00 PM","endFormatted":"07:00 PM","end":1412208000000,"location":{"name":"1333 N Laramie Ave, Chicago, IL","lat":41.905314,"lng":-87.755263},"name":"LaFolette Park"},{"description":"July 9 – October 29; 7am-1pm <br\/>","start":1412164800000,"startFormatted":"07:00 AM","endFormatted":"01:00 PM","end":1412186400000,"location":{"name":"111th and Cottage Grove, Chicago, IL","lat":41.691384,"lng":-87.60968299999999},"name":"Pullman Farmers Market"},{"description":"Wednesdays and Saturday from 9am to 1pm from July 9th through October 11","start":1412172000000,"startFormatted":"09:00 AM","endFormatted":"01:00 PM","end":1412186400000,"url":"http:\/\/www.chicagobotanic.org\/greenyouthfarm\/","location":{"name":"1215 Green Bay Road, North Chicago, IL","lat":42.33654,"lng":-87.872383},"name":"Lake County Youth Farmstand"},{"description":"Every Wed from 3-8 from May 21 - Sep 5th, then from 3p-7p until Oct 15","start":1412193600000,"startFormatted":"03:00 PM","endFormatted":"08:00 PM","end":1412211600000,"url":"http:\/\/www.andersonville.org\/events\/andersonvillefarmers-market\/","location":{"name":"Berwyn and Clark, Chicago, IL","lat":41.978032999999996,"lng":-87.66832199999999},"name":"Andersonville Famers Market"},{"description":"From June 4th through October 30th<br\/>Wed 1-5<br\/>Th 1-5<br\/>Sat 10-2","start":1412186400000,"startFormatted":"01:00 PM","endFormatted":"05:00 PM","end":1412200800000,"url":"http:\/\/www.cityfarmchicago.org\/our-produce\/farm-stand\/","location":{"name":"1204 N Clybourn Ave, Chicago, IL","lat":41.903833999999996,"lng":-87.639606},"name":"City Farm Chicago Walk-up Farm Stand"}]}