{"markets":[{"description":"Saturdays May 9th through October 31st, 7am - 1pm","start":1441454400000,"startFormatted":"07:00 AM","endFormatted":"01:00 PM","end":1441476000000,"location":{"name":"Division and Dearborn, Chicago, IL","lat":41.903915,"lng":-87.62999099999999},"name":"Division Street"},{"description":"Saturdays June 27th - October 3, 8am - 1pm","start":1441458000000,"startFormatted":"08:00 AM","endFormatted":"01:00 PM","end":1441476000000,"location":{"name":"71st and Racine, Chicago, IL","lat":41.764117999999996,"lng":-87.654091},"name":"Englewood"},{"description":"Saturdays June 6th - October 31st; 7am - 1pm","start":1441454400000,"startFormatted":"07:00 AM","endFormatted":"01:00 PM","end":1441476000000,"location":{"name":"Armitage and Orchard, Chicago, IL","lat":41.918203999999996,"lng":-87.646096},"name":"Lincoln Park"},{"description":"Saturdays June 13 - October 24 from 7am - 1pm","start":1441454400000,"startFormatted":"07:00 AM","endFormatted":"01:00 PM","end":1441476000000,"location":{"name":"Bell Plaine and Damen, Chicago, IL","lat":41.955977999999995,"lng":-87.67881799999999},"name":"Northcenter"},{"description":"June 20 - October 24; 7am - 1pm","start":1441454400000,"startFormatted":"07:00 AM","endFormatted":"01:00 PM","end":1441476000000,"location":{"name":"Dearborn and Polk, Chicago, IL","lat":41.872302,"lng":-87.629138},"name":"Printers Row Farmers Market"},{"description":"June 27 - September 26, 10am - 2pm","start":1441465200000,"startFormatted":"10:00 AM","endFormatted":"02:00 PM","end":1441479600000,"location":{"name":"3601 W Chicago Ave, Chicago, IL","lat":41.895106,"lng":-87.71677799999999},"name":"Humboldt Park"},{"description":"Saturdays, Memorial Day - October; 7am - 1pm<br\/>http:\/\/www.parkridgefarmersmarket.com\/","start":1441454400000,"startFormatted":"07:00 AM","endFormatted":"01:00 PM","end":1441476000000,"location":{"name":"Prairie and Garden Street, Park Ridge, IL","lat":42.009418,"lng":-87.83458},"name":"Park Ridge Farmers Market"}]}