{"markets":[{"description":"Saturdays May 9th through October 31st, 7am - 1pm","start":1444478400000,"startFormatted":"07:00 AM","endFormatted":"01:00 PM","end":1444500000000,"location":{"name":"Division and Dearborn, Chicago, IL","lat":41.903915,"lng":-87.62999099999999},"name":"Division Street"},{"description":"Saturdays June 6th - October 31st; 7am - 1pm","start":1444478400000,"startFormatted":"07:00 AM","endFormatted":"01:00 PM","end":1444500000000,"location":{"name":"Armitage and Orchard, Chicago, IL","lat":41.918203999999996,"lng":-87.646096},"name":"Lincoln Park"},{"description":"Saturdays June 13 - October 24 from 7am - 1pm","start":1444478400000,"startFormatted":"07:00 AM","endFormatted":"01:00 PM","end":1444500000000,"location":{"name":"Bell Plaine and Damen, Chicago, IL","lat":41.955977999999995,"lng":-87.67881799999999},"name":"Northcenter"},{"description":"June 20 - October 24; 7am - 1pm","start":1444478400000,"startFormatted":"07:00 AM","endFormatted":"01:00 PM","end":1444500000000,"location":{"name":"Dearborn and Polk, Chicago, IL","lat":41.872302,"lng":-87.629138},"name":"Printers Row Farmers Market"},{"description":"Saturdays, Memorial Day - October; 7am - 1pm<br\/>http:\/\/www.parkridgefarmersmarket.com\/","start":1444478400000,"startFormatted":"07:00 AM","endFormatted":"01:00 PM","end":1444500000000,"location":{"name":"Prairie and Garden Street, Park Ridge, IL","lat":42.009418,"lng":-87.83458},"name":"Park Ridge Farmers Market"},{"description":"Saturdays May 6 - October 17; 8am - 12pm","start":1444482000000,"startFormatted":"08:00 AM","endFormatted":"12:00 PM","end":1444496400000,"url":"http:\/\/mgfarmersmarket.com\/","location":{"name":"6210 Dempster Street, Morton Grove, IL","lat":42.04091,"lng":-87.78173799999999},"name":"Morton Grove Farmers Market"},{"description":"Saturdays, June 6 - October 17; 7:30am - 1pm","start":1444480200000,"startFormatted":"07:30 AM","endFormatted":"01:00 PM","end":1444500000000,"url":"http:\/\/www.elkgrove.com\/visitors\/special-events\/farmer-s-market","location":{"name":"901 Wellington Avenue, Elk Grove Village, IL","lat":42.002201,"lng":-88.00872},"name":"Elk Grove Farmers Market"}]}