{"markets":[{"description":"Saturdays May 9th through October 31st, 7am - 1pm","start":1441454400000,"startFormatted":"07:00 AM","endFormatted":"01:00 PM","end":1441476000000,"location":{"name":"Division and Dearborn, Chicago, IL","lat":41.903915,"lng":-87.62999099999999},"name":"Division Street"},{"description":"Saturdays June 27th - October 3, 8am - 1pm","start":1441458000000,"startFormatted":"08:00 AM","endFormatted":"01:00 PM","end":1441476000000,"location":{"name":"71st and Racine, Chicago, IL","lat":41.764117999999996,"lng":-87.654091},"name":"Englewood"},{"description":"Saturdays June 6th - October 31st; 7am - 1pm","start":1441454400000,"startFormatted":"07:00 AM","endFormatted":"01:00 PM","end":1441476000000,"location":{"name":"Armitage and Orchard, Chicago, IL","lat":41.918203999999996,"lng":-87.646096},"name":"Lincoln Park"},{"description":"Saturdays June 13 - October 24 from 7am - 1pm","start":1441454400000,"startFormatted":"07:00 AM","endFormatted":"01:00 PM","end":1441476000000,"location":{"name":"Bell Plaine and Damen, Chicago, IL","lat":41.955977999999995,"lng":-87.67881799999999},"name":"Northcenter"},{"description":"June 20 - October 24; 7am - 1pm","start":1441454400000,"startFormatted":"07:00 AM","endFormatted":"01:00 PM","end":1441476000000,"location":{"name":"Dearborn and Polk, Chicago, IL","lat":41.872302,"lng":-87.629138},"name":"Printers Row Farmers Market"},{"description":"June 27 - September 26, 10am - 2pm","start":1441465200000,"startFormatted":"10:00 AM","endFormatted":"02:00 PM","end":1441479600000,"location":{"name":"3601 W Chicago Ave, Chicago, IL","lat":41.895106,"lng":-87.71677799999999},"name":"Humboldt Park"},{"description":"Saturdays, Memorial Day - October; 7am - 1pm<br\/>http:\/\/www.parkridgefarmersmarket.com\/","start":1441454400000,"startFormatted":"07:00 AM","endFormatted":"01:00 PM","end":1441476000000,"location":{"name":"Prairie and Garden Street, Park Ridge, IL","lat":42.009418,"lng":-87.83458},"name":"Park Ridge Farmers Market"},{"description":"Saturdays May 6 - October 17; 8am - 12pm","start":1441458000000,"startFormatted":"08:00 AM","endFormatted":"12:00 PM","end":1441472400000,"url":"http:\/\/mgfarmersmarket.com\/","location":{"name":"6210 Dempster Street, Morton Grove, IL","lat":42.04091,"lng":-87.78173799999999},"name":"Morton Grove Farmers Market"},{"description":"Saturday's June 6-October 3; 9am - 1pm","start":1441461600000,"startFormatted":"09:00 AM","endFormatted":"01:00 PM","end":1441476000000,"url":"http:\/\/hornerpark.org\/farmers-market\/","location":{"name":"California and Montrose, Chicago, IL","lat":41.961270999999996,"lng":-87.69846799999999},"name":"Horner Park Farmers Market"},{"description":"Saturdays, June 6 - October 17; 7:30am - 1pm","start":1441456200000,"startFormatted":"07:30 AM","endFormatted":"01:00 PM","end":1441476000000,"url":"http:\/\/www.elkgrove.com\/visitors\/special-events\/farmer-s-market","location":{"name":"901 Wellington Avenue, Elk Grove Village, IL","lat":42.002201,"lng":-88.00872},"name":"Elk Grove Farmers Market"}]}