{"markets":[{"description":"Saturdays May 9th through October 31st, 7am - 1pm","start":1434801600000,"startFormatted":"07:00 AM","endFormatted":"01:00 PM","end":1434823200000,"location":{"name":"Division and Dearborn, Chicago, IL","lat":41.903915,"lng":-87.62999099999999},"name":"Division Street"},{"description":"Saturdays June 6th - October 31st; 7am - 1pm","start":1434801600000,"startFormatted":"07:00 AM","endFormatted":"01:00 PM","end":1434823200000,"location":{"name":"Armitage and Orchard, Chicago, IL","lat":41.918203999999996,"lng":-87.646096},"name":"Lincoln Park"},{"description":"Saturdays June 13 - October 24 from 7am - 1pm","start":1434801600000,"startFormatted":"07:00 AM","endFormatted":"01:00 PM","end":1434823200000,"location":{"name":"Bell Plaine and Damen, Chicago, IL","lat":41.955977999999995,"lng":-87.67881799999999},"name":"Northcenter"},{"description":"June 20 - October 24; 7am - 1pm","start":1434801600000,"startFormatted":"07:00 AM","endFormatted":"01:00 PM","end":1434823200000,"location":{"name":"Dearborn and Polk, Chicago, IL","lat":41.872302,"lng":-87.629138},"name":"Printers Row Farmers Market"},{"description":"Saturdays, Memorial Day - October; 7am - 1pm<br\/>http:\/\/www.parkridgefarmersmarket.com\/","start":1434801600000,"startFormatted":"07:00 AM","endFormatted":"01:00 PM","end":1434823200000,"location":{"name":"Prairie and Garden Street, Park Ridge, IL","lat":42.009418,"lng":-87.83458},"name":"Park Ridge Farmers Market"},{"description":"Saturdays May 6 - October 17; 8am - 12pm","start":1434805200000,"startFormatted":"08:00 AM","endFormatted":"12:00 PM","end":1434819600000,"url":"http:\/\/mgfarmersmarket.com\/","location":{"name":"6210 Dempster Street, Morton Grove, IL","lat":42.04091,"lng":-87.78173799999999},"name":"Morton Grove Farmers Market"},{"description":"Saturday's June 6-October 3; 9am - 1pm","start":1434808800000,"startFormatted":"09:00 AM","endFormatted":"01:00 PM","end":1434823200000,"url":"http:\/\/hornerpark.org\/farmers-market\/","location":{"name":"California and Montrose, Chicago, IL","lat":41.961270999999996,"lng":-87.69846799999999},"name":"Horner Park Farmers Market"},{"description":"Saturdays, June 6 - October 17; 7:30am - 1pm","start":1434803400000,"startFormatted":"07:30 AM","endFormatted":"01:00 PM","end":1434823200000,"url":"http:\/\/www.elkgrove.com\/visitors\/special-events\/farmer-s-market","location":{"name":"901 Wellington Avenue, Elk Grove Village, IL","lat":42.002201,"lng":-88.00872},"name":"Elk Grove Farmers Market"},{"description":"Saturdays and Wednesdays, May 2 - October 24; 7am - 1pm","start":1434801600000,"startFormatted":"07:00 AM","endFormatted":"01:00 PM","end":1434823200000,"url":"http:\/\/www.greencitymarket.org\/","location":{"name":"1790 N Clark Street, Chicago, IL","lat":41.914739,"lng":-87.633842},"name":"Green City Market"},{"description":"Saturdays June 13 - October 10; 7am -12:30pm","start":1434801600000,"startFormatted":"07:00 AM","endFormatted":"12:30 PM","end":1434821400000,"url":"http:\/\/www.deerfield.il.us\/residents\/farmers_market\/","location":{"name":"Deerfield Metra Station","lat":42.167339,"lng":-87.849953},"name":"Deerfield Farmers Market"},{"description":"Saturdays May 9th - October 17; 7am - 12:30pm","start":1434801600000,"startFormatted":"07:00 AM","endFormatted":"12:30 PM","end":1434821400000,"url":"http:\/\/www.ymcachicago.org\/indianboundary\/pages\/special-events","location":{"name":"Downers Grove Metra, Burlington Avenue, Downers Grove, IL","lat":41.795355,"lng":-88.010345},"name":"Downers Grover Farmers Market"},{"description":"Saturdays May 23 - October 17; 730am - 1230pm","start":1434803400000,"startFormatted":"07:30 AM","endFormatted":"12:30 PM","end":1434821400000,"url":"http:\/\/winnetkanorthfieldchamber.com\/a-community-tradition-for-over-35-years\/","location":{"name":"6 Happ Road, Winnetka, IL","lat":42.088902,"lng":-87.76623599999999},"name":"Northfield Farmers Market"},{"description":"Saturdays May 9 - November 7; 7:30am - 1:00 pm","start":1434803400000,"startFormatted":"07:30 AM","endFormatted":"01:00 PM","end":1434823200000,"url":"http:\/\/cityofevanston.org\/evanston-life\/farmers-market\/","location":{"name":"University Place and Oak Avenue, Evanston, IL","lat":42.05106,"lng":-87.68654599999999},"name":"Downtown Evanston Market"},{"description":"Saturdays from June 20 - October 10; 8am - 1pm","start":1434805200000,"startFormatted":"08:00 AM","endFormatted":"01:00 PM","end":1434823200000,"url":"http:\/\/www.cityoflakeforest.com\/lake-forest-life\/farmers-market\/","location":{"name":"220 East Deerpath Road, Lake Forest, IL","lat":42.251019,"lng":-87.84185},"name":"Lake Forest Open Air Market"},{"description":"Saturdays June - October; 7am - 12pm","start":1434801600000,"startFormatted":"07:00 AM","endFormatted":"12:00 PM","end":1434819600000,"url":"http:\/\/www.naperville.il.us\/farmersmarket.aspx","location":{"name":"Fifth Avenue Station Parking Lot, Naperville, IL","lat":41.779519,"lng":-88.14595},"name":"Naperville Farmers Market"}]}